{
  "donors": {
    "donor1": {
      "name": "Donor 1",
      "bloodGroup": "A-",
      "city": "Mumbai",
      "lat": 19.086,
      "lng": 72.8877,
      "phone": "9876500001"
    },
    "donor2": {
      "name": "Donor 2",
      "bloodGroup": "B+",
      "city": "Delhi",
      "lat": 28.6339,
      "lng": 77.229,
      "phone": "9876500002"
    },
    "donor3": {
      "name": "Donor 3",
      "bloodGroup": "B-",
      "city": "Bangalore",
      "lat": 13.0016,
      "lng": 77.6246,
      "phone": "9876500003"
    },
    "donor4": {
      "name": "Donor 4",
      "bloodGroup": "AB+",
      "city": "Hyderabad",
      "lat": 17.425,
      "lng": 78.5267,
      "phone": "9876500004"
    },
    "donor5": {
      "name": "Donor 5",
      "bloodGroup": "AB-",
      "city": "Ahmedabad",
      "lat": 23.0225,
      "lng": 72.5714,
      "phone": "9876500005"
    },
    "donor6": {
      "name": "Donor 6",
      "bloodGroup": "O+",
      "city": "Kolkata",
      "lat": 22.5826,
      "lng": 88.3739,
      "phone": "9876500006"
    },
    "donor7": {
      "name": "Donor 7",
      "bloodGroup": "O-",
      "city": "Pune",
      "lat": 18.5404,
      "lng": 73.8767,
      "phone": "9876500007"
    },
    "donor8": {
      "name": "Donor 8",
      "bloodGroup": "A+",
      "city": "Jaipur",
      "lat": 26.9424,
      "lng": 75.8173,
      "phone": "9876500008"
    },
    "donor9": {
      "name": "Donor 9",
      "bloodGroup": "A-",
      "city": "Lucknow",
      "lat": 26.8867,
      "lng": 80.9862,
      "phone": "9876500009"
    },
    "donor10": {
      "name": "Donor 10",
      "bloodGroup": "B+",
      "city": "Chennai",
      "lat": 13.0827,
      "lng": 80.2707,
      "phone": "9876500010"
    },
    "donor11": {
      "name": "Donor 11",
      "bloodGroup": "B-",
      "city": "Mumbai",
      "lat": 19.086,
      "lng": 72.8877,
      "phone": "9876500011"
    },
    "donor12": {
      "name": "Donor 12",
      "bloodGroup": "AB+",
      "city": "Delhi",
      "lat": 28.6339,
      "lng": 77.229,
      "phone": "9876500012"
    },
    "donor13": {
      "name": "Donor 13",
      "bloodGroup": "AB-",
      "city": "Bangalore",
      "lat": 13.0016,
      "lng": 77.6246,
      "phone": "9876500013"
    },
    "donor14": {
      "name": "Donor 14",
      "bloodGroup": "O+",
      "city": "Hyderabad",
      "lat": 17.425,
      "lng": 78.5267,
      "phone": "9876500014"
    },
    "donor15": {
      "name": "Donor 15",
      "bloodGroup": "O-",
      "city": "Ahmedabad",
      "lat": 23.0225,
      "lng": 72.5714,
      "phone": "9876500015"
    },
    "donor16": {
      "name": "Donor 16",
      "bloodGroup": "A+",
      "city": "Kolkata",
      "lat": 22.5826,
      "lng": 88.3739,
      "phone": "9876500016"
    },
    "donor17": {
      "name": "Donor 17",
      "bloodGroup": "A-",
      "city": "Pune",
      "lat": 18.5404,
      "lng": 73.8767,
      "phone": "9876500017"
    },
    "donor18": {
      "name": "Donor 18",
      "bloodGroup": "B+",
      "city": "Jaipur",
      "lat": 26.9424,
      "lng": 75.8173,
      "phone": "9876500018"
    },
    "donor19": {
      "name": "Donor 19",
      "bloodGroup": "B-",
      "city": "Lucknow",
      "lat": 26.8867,
      "lng": 80.9862,
      "phone": "9876500019"
    },
    "donor20": {
      "name": "Donor 20",
      "bloodGroup": "AB+",
      "city": "Chennai",
      "lat": 13.0827,
      "lng": 80.2707,
      "phone": "9876500020"
    },
    "donor21": {
      "name": "Donor 21",
      "bloodGroup": "AB-",
      "city": "Mumbai",
      "lat": 19.086,
      "lng": 72.8877,
      "phone": "9876500021"
    },
    "donor22": {
      "name": "Donor 22",
      "bloodGroup": "O+",
      "city": "Delhi",
      "lat": 28.6339,
      "lng": 77.229,
      "phone": "9876500022"
    },
    "donor23": {
      "name": "Donor 23",
      "bloodGroup": "O-",
      "city": "Bangalore",
      "lat": 13.0016,
      "lng": 77.6246,
      "phone": "9876500023"
    },
    "donor24": {
      "name": "Donor 24",
      "bloodGroup": "A+",
      "city": "Hyderabad",
      "lat": 17.425,
      "lng": 78.5267,
      "phone": "9876500024"
    },
    "donor25": {
      "name": "Donor 25",
      "bloodGroup": "A-",
      "city": "Ahmedabad",
      "lat": 23.0225,
      "lng": 72.5714,
      "phone": "9876500025"
    },
    "donor26": {
      "name": "Donor 26",
      "bloodGroup": "B+",
      "city": "Kolkata",
      "lat": 22.5826,
      "lng": 88.3739,
      "phone": "9876500026"
    },
    "donor27": {
      "name": "Donor 27",
      "bloodGroup": "B-",
      "city": "Pune",
      "lat": 18.5404,
      "lng": 73.8767,
      "phone": "9876500027"
    },
    "donor28": {
      "name": "Donor 28",
      "bloodGroup": "AB+",
      "city": "Jaipur",
      "lat": 26.9424,
      "lng": 75.8173,
      "phone": "9876500028"
    },
    "donor29": {
      "name": "Donor 29",
      "bloodGroup": "AB-",
      "city": "Lucknow",
      "lat": 26.8867,
      "lng": 80.9862,
      "phone": "9876500029"
    },
    "donor30": {
      "name": "Donor 30",
      "bloodGroup": "O+",
      "city": "Chennai",
      "lat": 13.0827,
      "lng": 80.2707,
      "phone": "9876500030"
    },
    "donor31": {
      "name": "Donor 31",
      "bloodGroup": "O-",
      "city": "Mumbai",
      "lat": 19.086,
      "lng": 72.8877,
      "phone": "9876500031"
    },
    "donor32": {
      "name": "Donor 32",
      "bloodGroup": "A+",
      "city": "Delhi",
      "lat": 28.6339,
      "lng": 77.229,
      "phone": "9876500032"
    },
    "donor33": {
      "name": "Donor 33",
      "bloodGroup": "A-",
      "city": "Bangalore",
      "lat": 13.0016,
      "lng": 77.6246,
      "phone": "9876500033"
    },
    "donor34": {
      "name": "Donor 34",
      "bloodGroup": "B+",
      "city": "Hyderabad",
      "lat": 17.425,
      "lng": 78.5267,
      "phone": "9876500034"
    },
    "donor35": {
      "name": "Donor 35",
      "bloodGroup": "B-",
      "city": "Ahmedabad",
      "lat": 23.0225,
      "lng": 72.5714,
      "phone": "9876500035"
    },
    "donor36": {
      "name": "Donor 36",
      "bloodGroup": "AB+",
      "city": "Kolkata",
      "lat": 22.5826,
      "lng": 88.3739,
      "phone": "9876500036"
    },
    "donor37": {
      "name": "Donor 37",
      "bloodGroup": "AB-",
      "city": "Pune",
      "lat": 18.5404,
      "lng": 73.8767,
      "phone": "9876500037"
    },
    "donor38": {
      "name": "Donor 38",
      "bloodGroup": "O+",
      "city": "Jaipur",
      "lat": 26.9424,
      "lng": 75.8173,
      "phone": "9876500038"
    },
    "donor39": {
      "name": "Donor 39",
      "bloodGroup": "O-",
      "city": "Lucknow",
      "lat": 26.8867,
      "lng": 80.9862,
      "phone": "9876500039"
    },
    "donor40": {
      "name": "Donor 40",
      "bloodGroup": "A+",
      "city": "Chennai",
      "lat": 13.0827,
      "lng": 80.2707,
      "phone": "9876500040"
    },
    "donor41": {
      "name": "Donor 41",
      "bloodGroup": "A-",
      "city": "Mumbai",
      "lat": 19.086,
      "lng": 72.8877,
      "phone": "9876500041"
    },
    "donor42": {
      "name": "Donor 42",
      "bloodGroup": "B+",
      "city": "Delhi",
      "lat": 28.6339,
      "lng": 77.229,
      "phone": "9876500042"
    },
    "donor43": {
      "name": "Donor 43",
      "bloodGroup": "B-",
      "city": "Bangalore",
      "lat": 13.0016,
      "lng": 77.6246,
      "phone": "9876500043"
    },
    "donor44": {
      "name": "Donor 44",
      "bloodGroup": "AB+",
      "city": "Hyderabad",
      "lat": 17.425,
      "lng": 78.5267,
      "phone": "9876500044"
    },
    "donor45": {
      "name": "Donor 45",
      "bloodGroup": "AB-",
      "city": "Ahmedabad",
      "lat": 23.0225,
      "lng": 72.5714,
      "phone": "9876500045"
    },
    "donor46": {
      "name": "Donor 46",
      "bloodGroup": "O+",
      "city": "Kolkata",
      "lat": 22.5826,
      "lng": 88.3739,
      "phone": "9876500046"
    },
    "donor47": {
      "name": "Donor 47",
      "bloodGroup": "O-",
      "city": "Pune",
      "lat": 18.5404,
      "lng": 73.8767,
      "phone": "9876500047"
    },
    "donor48": {
      "name": "Donor 48",
      "bloodGroup": "A+",
      "city": "Jaipur",
      "lat": 26.9424,
      "lng": 75.8173,
      "phone": "9876500048"
    },
    "donor49": {
      "name": "Donor 49",
      "bloodGroup": "A-",
      "city": "Lucknow",
      "lat": 26.8867,
      "lng": 80.9862,
      "phone": "9876500049"
    },
    "donor50": {
      "name": "Donor 50",
      "bloodGroup": "B+",
      "city": "Chennai",
      "lat": 13.0827,
      "lng": 80.2707,
      "phone": "9876500050"
    }
  }
}